%time,field.header.seq,field.header.stamp,field.header.frame_id,field.status.status,field.status.service,field.latitude,field.longitude,field.altitude,field.position_covariance0,field.position_covariance1,field.position_covariance2,field.position_covariance3,field.position_covariance4,field.position_covariance5,field.position_covariance6,field.position_covariance7,field.position_covariance8,field.position_covariance_type
82300000000,822,82300000000,base_link,0,0,35.8594557426,-108.236839159,12.4736919681,0.001251461376,0.0,0.0,0.0,0.0036,0.0,0.0,0.0,0.00090601,2
82400000000,823,82400000000,base_link,0,0,35.8594558576,-108.236839392,12.460314806,0.001251461376,0.0,0.0,0.0,0.0036,0.0,0.0,0.0,0.00090601,2
82500000000,824,82500000000,base_link,0,0,35.8594550065,-108.236838446,12.5039916811,0.001251461376,0.0,0.0,0.0,0.0036,0.0,0.0,0.0,0.00090601,2
82600000000,825,82600000000,base_link,0,0,35.8594551022,-108.236838413,12.4931860133,0.001251461376,0.0,0.0,0.0,0.0036,0.0,0.0,0.0,0.00090601,2
82700000000,826,82700000000,base_link,0,0,35.8594549667,-108.236838237,12.4127554013,0.001251461376,0.0,0.0,0.0,0.0036,0.0,0.0,0.0,0.00090601,2
82800000000,827,82800000000,base_link,0,0,35.8594563242,-108.236839317,12.4829500603,0.001251461376,0.0,0.0,0.0,0.0036,0.0,0.0,0.0,0.00090601,2
82900000000,828,82900000000,base_link,0,0,35.8594561279,-108.236838118,12.4856033165,0.001251461376,0.0,0.0,0.0,0.0036,0.0,0.0,0.0,0.00090601,2
83000000000,829,83000000000,base_link,0,0,35.8594554269,-108.236838085,12.4522706008,0.001251461376,0.0,0.0,0.0,0.0036,0.0,0.0,0.0,0.00090601,2
83100000000,830,83100000000,base_link,0,0,35.8594560365,-108.236839061,12.5014097408,0.001251461376,0.0,0.0,0.0,0.0036,0.0,0.0,0.0,0.00090601,2
83200000000,831,83200000000,base_link,0,0,35.8594553264,-108.236838682,12.4561411788,0.001251461376,0.0,0.0,0.0,0.0036,0.0,0.0,0.0,0.00090601,2
83300000000,832,83300000000,base_link,0,0,35.8594563295,-108.236839254,12.4349150222,0.001251461376,0.0,0.0,0.0,0.0036,0.0,0.0,0.0,0.00090601,2
83400000000,833,83400000000,base_link,0,0,35.8594568142,-108.236838919,12.4939145919,0.001251461376,0.0,0.0,0.0,0.0036,0.0,0.0,0.0,0.00090601,2
83500000000,834,83500000000,base_link,0,0,35.859456083,-108.236838681,12.5010652041,0.001251461376,0.0,0.0,0.0,0.0036,0.0,0.0,0.0,0.00090601,2
83600000000,835,83600000000,base_link,0,0,35.8594565856,-108.236838934,12.5149128286,0.001251461376,0.0,0.0,0.0,0.0036,0.0,0.0,0.0,0.00090601,2
83700000000,836,83700000000,base_link,0,0,35.8594565477,-108.236838589,12.4854239402,0.001251461376,0.0,0.0,0.0,0.0036,0.0,0.0,0.0,0.00090601,2
83800000000,837,83800000000,base_link,0,0,35.8594562945,-108.23683848,12.5188908517,0.001251461376,0.0,0.0,0.0,0.0036,0.0,0.0,0.0,0.00090601,2
83900000000,838,83900000000,base_link,0,0,35.8594551445,-108.236837906,12.4949888986,0.001251461376,0.0,0.0,0.0,0.0036,0.0,0.0,0.0,0.00090601,2
84000000000,839,84000000000,base_link,0,0,35.8594565154,-108.236838679,12.4947081692,0.001251461376,0.0,0.0,0.0,0.0036,0.0,0.0,0.0,0.00090601,2
84100000000,840,84100000000,base_link,0,0,35.8594554033,-108.236839278,12.4688438978,0.001251461376,0.0,0.0,0.0,0.0036,0.0,0.0,0.0,0.00090601,2
84200000000,841,84200000000,base_link,0,0,35.8594570614,-108.236838908,12.4903401935,0.001251461376,0.0,0.0,0.0,0.0036,0.0,0.0,0.0,0.00090601,2
84300000000,842,84300000000,base_link,0,0,35.8594557158,-108.236838544,12.4985958166,0.001251461376,0.0,0.0,0.0,0.0036,0.0,0.0,0.0,0.00090601,2
84400000000,843,84400000000,base_link,0,0,35.8594562501,-108.236838732,12.507426792,0.001251461376,0.0,0.0,0.0,0.0036,0.0,0.0,0.0,0.00090601,2
84500000000,844,84500000000,base_link,0,0,35.8594565077,-108.236839345,12.4726541832,0.001251461376,0.0,0.0,0.0,0.0036,0.0,0.0,0.0,0.00090601,2
84600000000,845,84600000000,base_link,0,0,35.8594563761,-108.236839698,12.4808541504,0.001251461376,0.0,0.0,0.0,0.0036,0.0,0.0,0.0,0.00090601,2
84700000000,846,84700000000,base_link,0,0,35.8594564507,-108.236838722,12.5573261088,0.001251461376,0.0,0.0,0.0,0.0036,0.0,0.0,0.0,0.00090601,2
84800000000,847,84800000000,base_link,0,0,35.8594560371,-108.236838697,12.4520086598,0.001251461376,0.0,0.0,0.0,0.0036,0.0,0.0,0.0,0.00090601,2
84900000000,848,84900000000,base_link,0,0,35.8594562481,-108.236838635,12.4560990864,0.001251461376,0.0,0.0,0.0,0.0036,0.0,0.0,0.0,0.00090601,2
85000000000,849,85000000000,base_link,0,0,35.8594561036,-108.236839197,12.4750897687,0.001251461376,0.0,0.0,0.0,0.0036,0.0,0.0,0.0,0.00090601,2
85100000000,850,85100000000,base_link,0,0,35.859456566,-108.236838484,12.5238217093,0.001251461376,0.0,0.0,0.0,0.0036,0.0,0.0,0.0,0.00090601,2
85200000000,851,85200000000,base_link,0,0,35.8594555852,-108.236838753,12.5278088435,0.001251461376,0.0,0.0,0.0,0.0036,0.0,0.0,0.0,0.00090601,2
85300000000,852,85300000000,base_link,0,0,35.8594567531,-108.236839232,12.4688095684,0.001251461376,0.0,0.0,0.0,0.0036,0.0,0.0,0.0,0.00090601,2
85400000000,853,85400000000,base_link,0,0,35.8594557637,-108.23683891,12.4187017819,0.001251461376,0.0,0.0,0.0,0.0036,0.0,0.0,0.0,0.00090601,2
85500000000,854,85500000000,base_link,0,0,35.8594559767,-108.236838176,12.4765587815,0.001251461376,0.0,0.0,0.0,0.0036,0.0,0.0,0.0,0.00090601,2
85600000000,855,85600000000,base_link,0,0,35.8594557234,-108.236838549,12.4940083823,0.001251461376,0.0,0.0,0.0,0.0036,0.0,0.0,0.0,0.00090601,2
85700000000,856,85700000000,base_link,0,0,35.8594560531,-108.236838793,12.4334851159,0.001251461376,0.0,0.0,0.0,0.0036,0.0,0.0,0.0,0.00090601,2
85800000000,857,85800000000,base_link,0,0,35.8594557825,-108.236838976,12.4112099817,0.001251461376,0.0,0.0,0.0,0.0036,0.0,0.0,0.0,0.00090601,2
85900000000,858,85900000000,base_link,0,0,35.8594562089,-108.236838746,12.485880251,0.001251461376,0.0,0.0,0.0,0.0036,0.0,0.0,0.0,0.00090601,2
86000000000,859,86000000000,base_link,0,0,35.8594562257,-108.236838888,12.4379787138,0.001251461376,0.0,0.0,0.0,0.0036,0.0,0.0,0.0,0.00090601,2
86100000000,860,86100000000,base_link,0,0,35.8594555208,-108.236838138,12.4714127279,0.001251461376,0.0,0.0,0.0,0.0036,0.0,0.0,0.0,0.00090601,2
86200000000,861,86200000000,base_link,0,0,35.8594562306,-108.236839139,12.4679458521,0.001251461376,0.0,0.0,0.0,0.0036,0.0,0.0,0.0,0.00090601,2
86300000000,862,86300000000,base_link,0,0,35.8594554972,-108.236838818,12.5081702531,0.001251461376,0.0,0.0,0.0,0.0036,0.0,0.0,0.0,0.00090601,2
86400000000,863,86400000000,base_link,0,0,35.8594567292,-108.236839136,12.4921978293,0.001251461376,0.0,0.0,0.0,0.0036,0.0,0.0,0.0,0.00090601,2
86500000000,864,86500000000,base_link,0,0,35.8594563993,-108.236838943,12.470095702,0.001251461376,0.0,0.0,0.0,0.0036,0.0,0.0,0.0,0.00090601,2
86600000000,865,86600000000,base_link,0,0,35.8594561999,-108.236838521,12.5519911372,0.001251461376,0.0,0.0,0.0,0.0036,0.0,0.0,0.0,0.00090601,2
86700000000,866,86700000000,base_link,0,0,35.8594557948,-108.236838299,12.5181720438,0.001251461376,0.0,0.0,0.0,0.0036,0.0,0.0,0.0,0.00090601,2
86800000000,867,86800000000,base_link,0,0,35.8594559459,-108.236838316,12.5153126282,0.001251461376,0.0,0.0,0.0,0.0036,0.0,0.0,0.0,0.00090601,2
86900000000,868,86900000000,base_link,0,0,35.8594563651,-108.236839094,12.4649389889,0.001251461376,0.0,0.0,0.0,0.0036,0.0,0.0,0.0,0.00090601,2
87000000000,869,87000000000,base_link,0,0,35.8594551195,-108.236837748,12.5231011748,0.001251461376,0.0,0.0,0.0,0.0036,0.0,0.0,0.0,0.00090601,2
87100000000,870,87100000000,base_link,0,0,35.8594564118,-108.236839004,12.5094459347,0.001251461376,0.0,0.0,0.0,0.0036,0.0,0.0,0.0,0.00090601,2
87200000000,871,87200000000,base_link,0,0,35.8594560229,-108.236837663,12.5055741175,0.001251461376,0.0,0.0,0.0,0.0036,0.0,0.0,0.0,0.00090601,2
87300000000,872,87300000000,base_link,0,0,35.8594565767,-108.236838698,12.5034914054,0.001251461376,0.0,0.0,0.0,0.0036,0.0,0.0,0.0,0.00090601,2
87400000000,873,87400000000,base_link,0,0,35.8594556981,-108.236838408,12.484497485,0.001251461376,0.0,0.0,0.0,0.0036,0.0,0.0,0.0,0.00090601,2
87500000000,874,87500000000,base_link,0,0,35.8594563877,-108.236838439,12.4635350987,0.001251461376,0.0,0.0,0.0,0.0036,0.0,0.0,0.0,0.00090601,2
87600000000,875,87600000000,base_link,0,0,35.8594562988,-108.236839356,12.4434563456,0.001251461376,0.0,0.0,0.0,0.0036,0.0,0.0,0.0,0.00090601,2
87700000000,876,87700000000,base_link,0,0,35.8594552673,-108.236837945,12.4862126214,0.001251461376,0.0,0.0,0.0,0.0036,0.0,0.0,0.0,0.00090601,2
87800000000,877,87800000000,base_link,0,0,35.8594562452,-108.236838264,12.4667275959,0.001251461376,0.0,0.0,0.0,0.0036,0.0,0.0,0.0,0.00090601,2
87900000000,878,87900000000,base_link,0,0,35.859455568,-108.236838277,12.4873093343,0.001251461376,0.0,0.0,0.0,0.0036,0.0,0.0,0.0,0.00090601,2
88000000000,879,88000000000,base_link,0,0,35.8594555078,-108.236838643,12.4985422312,0.001251461376,0.0,0.0,0.0,0.0036,0.0,0.0,0.0,0.00090601,2
88100000000,880,88100000000,base_link,0,0,35.8594563134,-108.236839145,12.5188875413,0.001251461376,0.0,0.0,0.0,0.0036,0.0,0.0,0.0,0.00090601,2
88200000000,881,88200000000,base_link,0,0,35.8594558106,-108.236838163,12.4676401665,0.001251461376,0.0,0.0,0.0,0.0036,0.0,0.0,0.0,0.00090601,2
88300000000,882,88300000000,base_link,0,0,35.8594564052,-108.236838718,12.4851603771,0.001251461376,0.0,0.0,0.0,0.0036,0.0,0.0,0.0,0.00090601,2
88400000000,883,88400000000,base_link,0,0,35.8594556776,-108.236838906,12.4553654173,0.001251461376,0.0,0.0,0.0,0.0036,0.0,0.0,0.0,0.00090601,2
88500000000,884,88500000000,base_link,0,0,35.8594561071,-108.23683879,12.4412119884,0.001251461376,0.0,0.0,0.0,0.0036,0.0,0.0,0.0,0.00090601,2
88600000000,885,88600000000,base_link,0,0,35.8594557353,-108.236838038,12.4826812529,0.001251461376,0.0,0.0,0.0,0.0036,0.0,0.0,0.0,0.00090601,2
88700000000,886,88700000000,base_link,0,0,35.8594562262,-108.236838708,12.5247853717,0.001251461376,0.0,0.0,0.0,0.0036,0.0,0.0,0.0,0.00090601,2
88800000000,887,88800000000,base_link,0,0,35.8594558895,-108.236838485,12.4663467307,0.001251461376,0.0,0.0,0.0,0.0036,0.0,0.0,0.0,0.00090601,2
88900000000,888,88900000000,base_link,0,0,35.859455232,-108.236838589,12.4242350816,0.001251461376,0.0,0.0,0.0,0.0036,0.0,0.0,0.0,0.00090601,2
89000000000,889,89000000000,base_link,0,0,35.8594557301,-108.23683886,12.4647088854,0.001251461376,0.0,0.0,0.0,0.0036,0.0,0.0,0.0,0.00090601,2
89100000000,890,89100000000,base_link,0,0,35.8594569037,-108.236839041,12.4431288909,0.001251461376,0.0,0.0,0.0,0.0036,0.0,0.0,0.0,0.00090601,2
89200000000,891,89200000000,base_link,0,0,35.8594559128,-108.236839067,12.460929657,0.001251461376,0.0,0.0,0.0,0.0036,0.0,0.0,0.0,0.00090601,2
89300000000,892,89300000000,base_link,0,0,35.8594560301,-108.236838438,12.4398300482,0.001251461376,0.0,0.0,0.0,0.0036,0.0,0.0,0.0,0.00090601,2
89400000000,893,89400000000,base_link,0,0,35.8594550616,-108.236838109,12.4649245152,0.001251461376,0.0,0.0,0.0,0.0036,0.0,0.0,0.0,0.00090601,2
89500000000,894,89500000000,base_link,0,0,35.8594559018,-108.236838796,12.4861362374,0.001251461376,0.0,0.0,0.0,0.0036,0.0,0.0,0.0,0.00090601,2
89600000000,895,89600000000,base_link,0,0,35.8594560463,-108.236838708,12.4342819799,0.001251461376,0.0,0.0,0.0,0.0036,0.0,0.0,0.0,0.00090601,2
89700000000,896,89700000000,base_link,0,0,35.8594562325,-108.236838336,12.4473996106,0.001251461376,0.0,0.0,0.0,0.0036,0.0,0.0,0.0,0.00090601,2
89800000000,897,89800000000,base_link,0,0,35.8594561489,-108.236838927,12.4506931558,0.001251461376,0.0,0.0,0.0,0.0036,0.0,0.0,0.0,0.00090601,2
89900000000,898,89900000000,base_link,0,0,35.8594560619,-108.236838584,12.4854740456,0.001251461376,0.0,0.0,0.0,0.0036,0.0,0.0,0.0,0.00090601,2
90000000000,899,90000000000,base_link,0,0,35.8594554075,-108.236839046,12.4952386097,0.001251461376,0.0,0.0,0.0,0.0036,0.0,0.0,0.0,0.00090601,2
90100000000,900,90100000000,base_link,0,0,35.8594561878,-108.236839211,12.4653732034,0.001251461376,0.0,0.0,0.0,0.0036,0.0,0.0,0.0,0.00090601,2
90200000000,901,90200000000,base_link,0,0,35.8594553612,-108.236838465,12.5125217282,0.001251461376,0.0,0.0,0.0,0.0036,0.0,0.0,0.0,0.00090601,2
90300000000,902,90300000000,base_link,0,0,35.8594554007,-108.236838504,12.4657023552,0.001251461376,0.0,0.0,0.0,0.0036,0.0,0.0,0.0,0.00090601,2
90400000000,903,90400000000,base_link,0,0,35.8594556732,-108.23683827,12.4961688065,0.001251461376,0.0,0.0,0.0,0.0036,0.0,0.0,0.0,0.00090601,2
90500000000,904,90500000000,base_link,0,0,35.8594560176,-108.23683889,12.4809852596,0.001251461376,0.0,0.0,0.0,0.0036,0.0,0.0,0.0,0.00090601,2
90600000000,905,90600000000,base_link,0,0,35.8594565541,-108.236838805,12.4151624908,0.001251461376,0.0,0.0,0.0,0.0036,0.0,0.0,0.0,0.00090601,2
90700000000,906,90700000000,base_link,0,0,35.8594558235,-108.236838313,12.4486598112,0.001251461376,0.0,0.0,0.0,0.0036,0.0,0.0,0.0,0.00090601,2
90800000000,907,90800000000,base_link,0,0,35.8594556476,-108.236838439,12.4573832524,0.001251461376,0.0,0.0,0.0,0.0036,0.0,0.0,0.0,0.00090601,2
90900000000,908,90900000000,base_link,0,0,35.8594561691,-108.236838133,12.4288135969,0.001251461376,0.0,0.0,0.0,0.0036,0.0,0.0,0.0,0.00090601,2
91000000000,909,91000000000,base_link,0,0,35.8594556282,-108.236839018,12.5486383954,0.001251461376,0.0,0.0,0.0,0.0036,0.0,0.0,0.0,0.00090601,2
91100000000,910,91100000000,base_link,0,0,35.8594551891,-108.236838713,12.5161253524,0.001251461376,0.0,0.0,0.0,0.0036,0.0,0.0,0.0,0.00090601,2
91200000000,911,91200000000,base_link,0,0,35.8594551087,-108.236838858,12.4562491544,0.001251461376,0.0,0.0,0.0,0.0036,0.0,0.0,0.0,0.00090601,2
91300000000,912,91300000000,base_link,0,0,35.8594569065,-108.236839218,12.4571929299,0.001251461376,0.0,0.0,0.0,0.0036,0.0,0.0,0.0,0.00090601,2
91400000000,913,91400000000,base_link,0,0,35.8594555804,-108.236838724,12.4469874483,0.001251461376,0.0,0.0,0.0,0.0036,0.0,0.0,0.0,0.00090601,2
91500000000,914,91500000000,base_link,0,0,35.8594557575,-108.236838642,12.473629671,0.001251461376,0.0,0.0,0.0,0.0036,0.0,0.0,0.0,0.00090601,2
91600000000,915,91600000000,base_link,0,0,35.8594565033,-108.236839136,12.4899228227,0.001251461376,0.0,0.0,0.0,0.0036,0.0,0.0,0.0,0.00090601,2
91700000000,916,91700000000,base_link,0,0,35.8594558974,-108.236838805,12.4378572518,0.001251461376,0.0,0.0,0.0,0.0036,0.0,0.0,0.0,0.00090601,2
91800000000,917,91800000000,base_link,0,0,35.8594557111,-108.236838003,12.497972359,0.001251461376,0.0,0.0,0.0,0.0036,0.0,0.0,0.0,0.00090601,2
91900000000,918,91900000000,base_link,0,0,35.8594562546,-108.236839413,12.4971994504,0.001251461376,0.0,0.0,0.0,0.0036,0.0,0.0,0.0,0.00090601,2
92000000000,919,92000000000,base_link,0,0,35.8594556998,-108.236838621,12.4938203192,0.001251461376,0.0,0.0,0.0,0.0036,0.0,0.0,0.0,0.00090601,2
92100000000,920,92100000000,base_link,0,0,35.8594555884,-108.236838427,12.42780869,0.001251461376,0.0,0.0,0.0,0.0036,0.0,0.0,0.0,0.00090601,2
92200000000,921,92200000000,base_link,0,0,35.8594551358,-108.23683764,12.5280261661,0.001251461376,0.0,0.0,0.0,0.0036,0.0,0.0,0.0,0.00090601,2
92300000000,922,92300000000,base_link,0,0,35.859455648,-108.23683885,12.5260081123,0.001251461376,0.0,0.0,0.0,0.0036,0.0,0.0,0.0,0.00090601,2
92400000000,923,92400000000,base_link,0,0,35.8594554104,-108.236838849,12.5345013006,0.001251461376,0.0,0.0,0.0,0.0036,0.0,0.0,0.0,0.00090601,2
92500000000,924,92500000000,base_link,0,0,35.8594569484,-108.236838236,12.4583419607,0.001251461376,0.0,0.0,0.0,0.0036,0.0,0.0,0.0,0.00090601,2
92600000000,925,92600000000,base_link,0,0,35.8594561958,-108.236839078,12.5256404908,0.001251461376,0.0,0.0,0.0,0.0036,0.0,0.0,0.0,0.00090601,2
92700000000,926,92700000000,base_link,0,0,35.8594558034,-108.236838413,12.4581782567,0.001251461376,0.0,0.0,0.0,0.0036,0.0,0.0,0.0,0.00090601,2
92800000000,927,92800000000,base_link,0,0,35.8594550554,-108.236838625,12.4605522641,0.001251461376,0.0,0.0,0.0,0.0036,0.0,0.0,0.0,0.00090601,2
92900000000,928,92900000000,base_link,0,0,35.8594562564,-108.236839454,12.5111389476,0.001251461376,0.0,0.0,0.0,0.0036,0.0,0.0,0.0,0.00090601,2
93000000000,929,93000000000,base_link,0,0,35.8594559433,-108.236838981,12.5185884585,0.001251461376,0.0,0.0,0.0,0.0036,0.0,0.0,0.0,0.00090601,2
93100000000,930,93100000000,base_link,0,0,35.859455914,-108.236839365,12.4886273382,0.001251461376,0.0,0.0,0.0,0.0036,0.0,0.0,0.0,0.00090601,2
93200000000,931,93200000000,base_link,0,0,35.8594557568,-108.236838489,12.4345343196,0.001251461376,0.0,0.0,0.0,0.0036,0.0,0.0,0.0,0.00090601,2
93300000000,932,93300000000,base_link,0,0,35.8594558513,-108.23683906,12.4641906672,0.001251461376,0.0,0.0,0.0,0.0036,0.0,0.0,0.0,0.00090601,2
93400000000,933,93400000000,base_link,0,0,35.8594560249,-108.236839127,12.5141910404,0.001251461376,0.0,0.0,0.0,0.0036,0.0,0.0,0.0,0.00090601,2
93500000000,934,93500000000,base_link,0,0,35.8594562804,-108.236838595,12.4741426594,0.001251461376,0.0,0.0,0.0,0.0036,0.0,0.0,0.0,0.00090601,2
93600000000,935,93600000000,base_link,0,0,35.8594561158,-108.236838609,12.4360364698,0.001251461376,0.0,0.0,0.0,0.0036,0.0,0.0,0.0,0.00090601,2
93700000000,936,93700000000,base_link,0,0,35.8594564128,-108.236838374,12.4689263144,0.001251461376,0.0,0.0,0.0,0.0036,0.0,0.0,0.0,0.00090601,2
93800000000,937,93800000000,base_link,0,0,35.8594552097,-108.23683837,12.463930628,0.001251461376,0.0,0.0,0.0,0.0036,0.0,0.0,0.0,0.00090601,2
93900000000,938,93900000000,base_link,0,0,35.8594562349,-108.236839332,12.5132393039,0.001251461376,0.0,0.0,0.0,0.0036,0.0,0.0,0.0,0.00090601,2
94000000000,939,94000000000,base_link,0,0,35.8594559662,-108.236838223,12.5189411857,0.001251461376,0.0,0.0,0.0,0.0036,0.0,0.0,0.0,0.00090601,2
94100000000,940,94100000000,base_link,0,0,35.8594553515,-108.236838426,12.4916035551,0.001251461376,0.0,0.0,0.0,0.0036,0.0,0.0,0.0,0.00090601,2
94200000000,941,94200000000,base_link,0,0,35.8594564565,-108.236839524,12.4903266974,0.001251461376,0.0,0.0,0.0,0.0036,0.0,0.0,0.0,0.00090601,2
94300000000,942,94300000000,base_link,0,0,35.8594560497,-108.23683872,12.4829223091,0.001251461376,0.0,0.0,0.0,0.0036,0.0,0.0,0.0,0.00090601,2
94400000000,943,94400000000,base_link,0,0,35.8594548544,-108.236838191,12.5106927891,0.001251461376,0.0,0.0,0.0,0.0036,0.0,0.0,0.0,0.00090601,2
94500000000,944,94500000000,base_link,0,0,35.859455746,-108.236838788,12.508867574,0.001251461376,0.0,0.0,0.0,0.0036,0.0,0.0,0.0,0.00090601,2
94600000000,945,94600000000,base_link,0,0,35.8594560937,-108.236838491,12.4475744149,0.001251461376,0.0,0.0,0.0,0.0036,0.0,0.0,0.0,0.00090601,2
94700000000,946,94700000000,base_link,0,0,35.859455934,-108.236838588,12.5070106682,0.001251461376,0.0,0.0,0.0,0.0036,0.0,0.0,0.0,0.00090601,2
94800000000,947,94800000000,base_link,0,0,35.8594572225,-108.236839182,12.4622932648,0.001251461376,0.0,0.0,0.0,0.0036,0.0,0.0,0.0,0.00090601,2
94900000000,948,94900000000,base_link,0,0,35.859455304,-108.236838296,12.4882831763,0.001251461376,0.0,0.0,0.0,0.0036,0.0,0.0,0.0,0.00090601,2
95000000000,949,95000000000,base_link,0,0,35.8594562873,-108.236838857,12.4743630078,0.001251461376,0.0,0.0,0.0,0.0036,0.0,0.0,0.0,0.00090601,2
95100000000,950,95100000000,base_link,0,0,35.8594570315,-108.236839013,12.4978681353,0.001251461376,0.0,0.0,0.0,0.0036,0.0,0.0,0.0,0.00090601,2
95200000000,951,95200000000,base_link,0,0,35.8594564912,-108.236838127,12.4371614911,0.001251461376,0.0,0.0,0.0,0.0036,0.0,0.0,0.0,0.00090601,2
95300000000,952,95300000000,base_link,0,0,35.85945595,-108.236839129,12.409116458,0.001251461376,0.0,0.0,0.0,0.0036,0.0,0.0,0.0,0.00090601,2
95400000000,953,95400000000,base_link,0,0,35.8594559195,-108.236838912,12.4638883564,0.001251461376,0.0,0.0,0.0,0.0036,0.0,0.0,0.0,0.00090601,2
95500000000,954,95500000000,base_link,0,0,35.8594565518,-108.236838274,12.493201617,0.001251461376,0.0,0.0,0.0,0.0036,0.0,0.0,0.0,0.00090601,2
95600000000,955,95600000000,base_link,0,0,35.8594548234,-108.236837659,12.4887675034,0.001251461376,0.0,0.0,0.0,0.0036,0.0,0.0,0.0,0.00090601,2
95700000000,956,95700000000,base_link,0,0,35.8594557843,-108.236838934,12.4682276941,0.001251461376,0.0,0.0,0.0,0.0036,0.0,0.0,0.0,0.00090601,2
95800000000,957,95800000000,base_link,0,0,35.859456806,-108.236838675,12.4338771317,0.001251461376,0.0,0.0,0.0,0.0036,0.0,0.0,0.0,0.00090601,2
95900000000,958,95900000000,base_link,0,0,35.8594551796,-108.236837969,12.4056213666,0.001251461376,0.0,0.0,0.0,0.0036,0.0,0.0,0.0,0.00090601,2
96000000000,959,96000000000,base_link,0,0,35.8594561018,-108.236838189,12.5133502662,0.001251461376,0.0,0.0,0.0,0.0036,0.0,0.0,0.0,0.00090601,2
96100000000,960,96100000000,base_link,0,0,35.8594556233,-108.236838185,12.4736089461,0.001251461376,0.0,0.0,0.0,0.0036,0.0,0.0,0.0,0.00090601,2
96200000000,961,96200000000,base_link,0,0,35.8594560396,-108.236838811,12.4963826437,0.001251461376,0.0,0.0,0.0,0.0036,0.0,0.0,0.0,0.00090601,2
96300000000,962,96300000000,base_link,0,0,35.8594567838,-108.236838807,12.44343878,0.001251461376,0.0,0.0,0.0,0.0036,0.0,0.0,0.0,0.00090601,2
96400000000,963,96400000000,base_link,0,0,35.8594561851,-108.236837667,12.4815421228,0.001251461376,0.0,0.0,0.0,0.0036,0.0,0.0,0.0,0.00090601,2
96500000000,964,96500000000,base_link,0,0,35.8594558037,-108.236839107,12.4828277099,0.001251461376,0.0,0.0,0.0,0.0036,0.0,0.0,0.0,0.00090601,2
96600000000,965,96600000000,base_link,0,0,35.8594558929,-108.236838551,12.4314645975,0.001251461376,0.0,0.0,0.0,0.0036,0.0,0.0,0.0,0.00090601,2
96700000000,966,96700000000,base_link,0,0,35.8594556678,-108.236838788,12.438916788,0.001251461376,0.0,0.0,0.0,0.0036,0.0,0.0,0.0,0.00090601,2
96800000000,967,96800000000,base_link,0,0,35.8594559401,-108.23683885,12.4507360784,0.001251461376,0.0,0.0,0.0,0.0036,0.0,0.0,0.0,0.00090601,2
96900000000,968,96900000000,base_link,0,0,35.8594556231,-108.236838625,12.5140869415,0.001251461376,0.0,0.0,0.0,0.0036,0.0,0.0,0.0,0.00090601,2
97000000000,969,97000000000,base_link,0,0,35.8594559371,-108.236838589,12.4978168044,0.001251461376,0.0,0.0,0.0,0.0036,0.0,0.0,0.0,0.00090601,2
97100000000,970,97100000000,base_link,0,0,35.8594564029,-108.236839246,12.4494716762,0.001251461376,0.0,0.0,0.0,0.0036,0.0,0.0,0.0,0.00090601,2
97200000000,971,97200000000,base_link,0,0,35.8594567926,-108.236838212,12.4615255195,0.001251461376,0.0,0.0,0.0,0.0036,0.0,0.0,0.0,0.00090601,2
97300000000,972,97300000000,base_link,0,0,35.8594561776,-108.236838732,12.5169675754,0.001251461376,0.0,0.0,0.0,0.0036,0.0,0.0,0.0,0.00090601,2
97400000000,973,97400000000,base_link,0,0,35.8594551287,-108.236838364,12.4966548812,0.001251461376,0.0,0.0,0.0,0.0036,0.0,0.0,0.0,0.00090601,2
97500000000,974,97500000000,base_link,0,0,35.8594567191,-108.236838574,12.4293162743,0.001251461376,0.0,0.0,0.0,0.0036,0.0,0.0,0.0,0.00090601,2
97600000000,975,97600000000,base_link,0,0,35.8594557372,-108.236838751,12.518578075,0.001251461376,0.0,0.0,0.0,0.0036,0.0,0.0,0.0,0.00090601,2
97700000000,976,97700000000,base_link,0,0,35.8594561654,-108.236838341,12.5039769543,0.001251461376,0.0,0.0,0.0,0.0036,0.0,0.0,0.0,0.00090601,2
97800000000,977,97800000000,base_link,0,0,35.859455719,-108.236838646,12.5185998994,0.001251461376,0.0,0.0,0.0,0.0036,0.0,0.0,0.0,0.00090601,2
97900000000,978,97900000000,base_link,0,0,35.8594565395,-108.236839434,12.4784714673,0.001251461376,0.0,0.0,0.0,0.0036,0.0,0.0,0.0,0.00090601,2
98000000000,979,98000000000,base_link,0,0,35.859456774,-108.236838774,12.5001222379,0.001251461376,0.0,0.0,0.0,0.0036,0.0,0.0,0.0,0.00090601,2
98100000000,980,98100000000,base_link,0,0,35.8594560928,-108.23683855,12.5072529987,0.001251461376,0.0,0.0,0.0,0.0036,0.0,0.0,0.0,0.00090601,2
98200000000,981,98200000000,base_link,0,0,35.859456595,-108.236838623,12.4332999864,0.001251461376,0.0,0.0,0.0,0.0036,0.0,0.0,0.0,0.00090601,2
98300000000,982,98300000000,base_link,0,0,35.8594560027,-108.236838855,12.4902729278,0.001251461376,0.0,0.0,0.0,0.0036,0.0,0.0,0.0,0.00090601,2
98400000000,983,98400000000,base_link,0,0,35.85945526,-108.236838327,12.4664953851,0.001251461376,0.0,0.0,0.0,0.0036,0.0,0.0,0.0,0.00090601,2
98500000000,984,98500000000,base_link,0,0,35.8594554787,-108.236838485,12.5144207985,0.001251461376,0.0,0.0,0.0,0.0036,0.0,0.0,0.0,0.00090601,2
98600000000,985,98600000000,base_link,0,0,35.8594557429,-108.236838027,12.5259715691,0.001251461376,0.0,0.0,0.0,0.0036,0.0,0.0,0.0,0.00090601,2
98700000000,986,98700000000,base_link,0,0,35.8594571691,-108.236838693,12.494977384,0.001251461376,0.0,0.0,0.0,0.0036,0.0,0.0,0.0,0.00090601,2
98800000000,987,98800000000,base_link,0,0,35.8594559375,-108.236838069,12.4964010387,0.001251461376,0.0,0.0,0.0,0.0036,0.0,0.0,0.0,0.00090601,2
98900000000,988,98900000000,base_link,0,0,35.8594566875,-108.236839694,12.462512391,0.001251461376,0.0,0.0,0.0,0.0036,0.0,0.0,0.0,0.00090601,2
99000000000,989,99000000000,base_link,0,0,35.8594554292,-108.236839255,12.4748147032,0.001251461376,0.0,0.0,0.0,0.0036,0.0,0.0,0.0,0.00090601,2
99100000000,990,99100000000,base_link,0,0,35.8594555626,-108.236837517,12.4607496874,0.001251461376,0.0,0.0,0.0,0.0036,0.0,0.0,0.0,0.00090601,2
99200000000,991,99200000000,base_link,0,0,35.8594552826,-108.236838262,12.5149338899,0.001251461376,0.0,0.0,0.0,0.0036,0.0,0.0,0.0,0.00090601,2
99300000000,992,99300000000,base_link,0,0,35.8594558553,-108.236838468,12.473918333,0.001251461376,0.0,0.0,0.0,0.0036,0.0,0.0,0.0,0.00090601,2
99400000000,993,99400000000,base_link,0,0,35.8594563035,-108.236838225,12.4561053777,0.001251461376,0.0,0.0,0.0,0.0036,0.0,0.0,0.0,0.00090601,2
99500000000,994,99500000000,base_link,0,0,35.8594551483,-108.236838846,12.4896636697,0.001251461376,0.0,0.0,0.0,0.0036,0.0,0.0,0.0,0.00090601,2
99600000000,995,99600000000,base_link,0,0,35.8594561411,-108.23683862,12.508491517,0.001251461376,0.0,0.0,0.0,0.0036,0.0,0.0,0.0,0.00090601,2
99700000000,996,99700000000,base_link,0,0,35.8594565432,-108.236838906,12.5180527987,0.001251461376,0.0,0.0,0.0,0.0036,0.0,0.0,0.0,0.00090601,2
99800000000,997,99800000000,base_link,0,0,35.8594567411,-108.236838135,12.4520007184,0.001251461376,0.0,0.0,0.0,0.0036,0.0,0.0,0.0,0.00090601,2
99900000000,998,99900000000,base_link,0,0,35.8594556348,-108.23683833,12.4810278357,0.001251461376,0.0,0.0,0.0,0.0036,0.0,0.0,0.0,0.00090601,2
100000000000,999,100000000000,base_link,0,0,35.8594557757,-108.236838694,12.4486778138,0.001251461376,0.0,0.0,0.0,0.0036,0.0,0.0,0.0,0.00090601,2
100100000000,1000,100100000000,base_link,0,0,35.8594565201,-108.236838383,12.4616013314,0.001251461376,0.0,0.0,0.0,0.0036,0.0,0.0,0.0,0.00090601,2
100200000000,1001,100200000000,base_link,0,0,35.8594556329,-108.236838609,12.4780646267,0.001251461376,0.0,0.0,0.0,0.0036,0.0,0.0,0.0,0.00090601,2
100300000000,1002,100300000000,base_link,0,0,35.8594550301,-108.236838296,12.5163408802,0.001251461376,0.0,0.0,0.0,0.0036,0.0,0.0,0.0,0.00090601,2
100400000000,1003,100400000000,base_link,0,0,35.8594563246,-108.236839124,12.4671272137,0.001251461376,0.0,0.0,0.0,0.0036,0.0,0.0,0.0,0.00090601,2
100500000000,1004,100500000000,base_link,0,0,35.8594557595,-108.236839147,12.4471022958,0.001251461376,0.0,0.0,0.0,0.0036,0.0,0.0,0.0,0.00090601,2
100600000000,1005,100600000000,base_link,0,0,35.8594558309,-108.236838816,12.4713431238,0.001251461376,0.0,0.0,0.0,0.0036,0.0,0.0,0.0,0.00090601,2
100700000000,1006,100700000000,base_link,0,0,35.8594567438,-108.236837838,12.4702436502,0.001251461376,0.0,0.0,0.0,0.0036,0.0,0.0,0.0,0.00090601,2
100800000000,1007,100800000000,base_link,0,0,35.8594558208,-108.236839643,12.4553081003,0.001251461376,0.0,0.0,0.0,0.0036,0.0,0.0,0.0,0.00090601,2
100900000000,1008,100900000000,base_link,0,0,35.8594563659,-108.236838615,12.4349630506,0.001251461376,0.0,0.0,0.0,0.0036,0.0,0.0,0.0,0.00090601,2
101000000000,1009,101000000000,base_link,0,0,35.8594560271,-108.236838481,12.4174807191,0.001251461376,0.0,0.0,0.0,0.0036,0.0,0.0,0.0,0.00090601,2
101100000000,1010,101100000000,base_link,0,0,35.8594551748,-108.236838658,12.4372485281,0.001251461376,0.0,0.0,0.0,0.0036,0.0,0.0,0.0,0.00090601,2
101200000000,1011,101200000000,base_link,0,0,35.8594549906,-108.236838908,12.5084301516,0.001251461376,0.0,0.0,0.0,0.0036,0.0,0.0,0.0,0.00090601,2
101300000000,1012,101300000000,base_link,0,0,35.859455703,-108.236838433,12.4821695458,0.001251461376,0.0,0.0,0.0,0.0036,0.0,0.0,0.0,0.00090601,2
101400000000,1013,101400000000,base_link,0,0,35.859455377,-108.236838837,12.5068589673,0.001251461376,0.0,0.0,0.0,0.0036,0.0,0.0,0.0,0.00090601,2
101500000000,1014,101500000000,base_link,0,0,35.8594562022,-108.236838519,12.4641784576,0.001251461376,0.0,0.0,0.0,0.0036,0.0,0.0,0.0,0.00090601,2
101600000000,1015,101600000000,base_link,0,0,35.8594561788,-108.236838704,12.4717264164,0.001251461376,0.0,0.0,0.0,0.0036,0.0,0.0,0.0,0.00090601,2
101700000000,1016,101700000000,base_link,0,0,35.8594550989,-108.236838074,12.4995910226,0.001251461376,0.0,0.0,0.0,0.0036,0.0,0.0,0.0,0.00090601,2
101800000000,1017,101800000000,base_link,0,0,35.8594556939,-108.236838471,12.5276520165,0.001251461376,0.0,0.0,0.0,0.0036,0.0,0.0,0.0,0.00090601,2
101900000000,1018,101900000000,base_link,0,0,35.8594563107,-108.236837781,12.5688654194,0.001251461376,0.0,0.0,0.0,0.0036,0.0,0.0,0.0,0.00090601,2
102000000000,1019,102000000000,base_link,0,0,35.8594553851,-108.236838802,12.5170131959,0.001251461376,0.0,0.0,0.0,0.0036,0.0,0.0,0.0,0.00090601,2
102100000000,1020,102100000000,base_link,0,0,35.8594556931,-108.236839169,12.504123459,0.001251461376,0.0,0.0,0.0,0.0036,0.0,0.0,0.0,0.00090601,2
102200000000,1021,102200000000,base_link,0,0,35.8594559207,-108.236838584,12.46931849,0.001251461376,0.0,0.0,0.0,0.0036,0.0,0.0,0.0,0.00090601,2
102300000000,1022,102300000000,base_link,0,0,35.8594567584,-108.23683844,12.4640241075,0.001251461376,0.0,0.0,0.0,0.0036,0.0,0.0,0.0,0.00090601,2
102400000000,1023,102400000000,base_link,0,0,35.8594563293,-108.23683877,12.4618575406,0.001251461376,0.0,0.0,0.0,0.0036,0.0,0.0,0.0,0.00090601,2
102500000000,1024,102500000000,base_link,0,0,35.8594555088,-108.236837993,12.4929622058,0.001251461376,0.0,0.0,0.0,0.0036,0.0,0.0,0.0,0.00090601,2
102600000000,1025,102600000000,base_link,0,0,35.8594565374,-108.236838939,12.4189992989,0.001251461376,0.0,0.0,0.0,0.0036,0.0,0.0,0.0,0.00090601,2
102700000000,1026,102700000000,base_link,0,0,35.85945574,-108.236837576,12.4658689498,0.001251461376,0.0,0.0,0.0,0.0036,0.0,0.0,0.0,0.00090601,2
102800000000,1027,102800000000,base_link,0,0,35.8594571978,-108.236838495,12.4874060572,0.001251461376,0.0,0.0,0.0,0.0036,0.0,0.0,0.0,0.00090601,2
102900000000,1028,102900000000,base_link,0,0,35.8594565413,-108.23683942,12.4782422064,0.001251461376,0.0,0.0,0.0,0.0036,0.0,0.0,0.0,0.00090601,2
103000000000,1029,103000000000,base_link,0,0,35.8594558807,-108.236838133,12.4564072699,0.001251461376,0.0,0.0,0.0,0.0036,0.0,0.0,0.0,0.00090601,2
103100000000,1030,103100000000,base_link,0,0,35.859456917,-108.236838614,12.4452017929,0.001251461376,0.0,0.0,0.0,0.0036,0.0,0.0,0.0,0.00090601,2
103200000000,1031,103200000000,base_link,0,0,35.8594563683,-108.236838308,12.5141106241,0.001251461376,0.0,0.0,0.0,0.0036,0.0,0.0,0.0,0.00090601,2
103300000000,1032,103300000000,base_link,0,0,35.8594553289,-108.236838544,12.5062852926,0.001251461376,0.0,0.0,0.0,0.0036,0.0,0.0,0.0,0.00090601,2
103400000000,1033,103400000000,base_link,0,0,35.8594564859,-108.236839014,12.4805878982,0.001251461376,0.0,0.0,0.0,0.0036,0.0,0.0,0.0,0.00090601,2
103500000000,1034,103500000000,base_link,0,0,35.8594560332,-108.236838426,12.4619141429,0.001251461376,0.0,0.0,0.0,0.0036,0.0,0.0,0.0,0.00090601,2
103600000000,1035,103600000000,base_link,0,0,35.8594562017,-108.236838982,12.4599623825,0.001251461376,0.0,0.0,0.0,0.0036,0.0,0.0,0.0,0.00090601,2
103700000000,1036,103700000000,base_link,0,0,35.8594564458,-108.236839215,12.4990499743,0.001251461376,0.0,0.0,0.0,0.0036,0.0,0.0,0.0,0.00090601,2
103800000000,1037,103800000000,base_link,0,0,35.8594562814,-108.236838707,12.5092952178,0.001251461376,0.0,0.0,0.0,0.0036,0.0,0.0,0.0,0.00090601,2
103900000000,1038,103900000000,base_link,0,0,35.8594558049,-108.236838309,12.5174288189,0.001251461376,0.0,0.0,0.0,0.0036,0.0,0.0,0.0,0.00090601,2
104000000000,1039,104000000000,base_link,0,0,35.8594554016,-108.236838176,12.4607247403,0.001251461376,0.0,0.0,0.0,0.0036,0.0,0.0,0.0,0.00090601,2
104100000000,1040,104100000000,base_link,0,0,35.8594563046,-108.236838707,12.4796677248,0.001251461376,0.0,0.0,0.0,0.0036,0.0,0.0,0.0,0.00090601,2
104200000000,1041,104200000000,base_link,0,0,35.8594567968,-108.236838897,12.4791577189,0.001251461376,0.0,0.0,0.0,0.0036,0.0,0.0,0.0,0.00090601,2
104300000000,1042,104300000000,base_link,0,0,35.8594561826,-108.236838663,12.4406760513,0.001251461376,0.0,0.0,0.0,0.0036,0.0,0.0,0.0,0.00090601,2
104400000000,1043,104400000000,base_link,0,0,35.8594543458,-108.236837734,12.4579413401,0.001251461376,0.0,0.0,0.0,0.0036,0.0,0.0,0.0,0.00090601,2
104500000000,1044,104500000000,base_link,0,0,35.8594557731,-108.236838457,12.4849070084,0.001251461376,0.0,0.0,0.0,0.0036,0.0,0.0,0.0,0.00090601,2
104600000000,1045,104600000000,base_link,0,0,35.859455082,-108.236837972,12.5302669286,0.001251461376,0.0,0.0,0.0,0.0036,0.0,0.0,0.0,0.00090601,2
104700000000,1046,104700000000,base_link,0,0,35.8594554784,-108.236837845,12.4395039164,0.001251461376,0.0,0.0,0.0,0.0036,0.0,0.0,0.0,0.00090601,2
104800000000,1047,104800000000,base_link,0,0,35.8594566553,-108.236838305,12.4460216446,0.001251461376,0.0,0.0,0.0,0.0036,0.0,0.0,0.0,0.00090601,2
104900000000,1048,104900000000,base_link,0,0,35.8594560971,-108.236839078,12.4754978724,0.001251461376,0.0,0.0,0.0,0.0036,0.0,0.0,0.0,0.00090601,2
105000000000,1049,105000000000,base_link,0,0,35.8594557456,-108.236837627,12.4788207615,0.001251461376,0.0,0.0,0.0,0.0036,0.0,0.0,0.0,0.00090601,2
105100000000,1050,105100000000,base_link,0,0,35.8594557378,-108.236838431,12.5177991331,0.001251461376,0.0,0.0,0.0,0.0036,0.0,0.0,0.0,0.00090601,2
105200000000,1051,105200000000,base_link,0,0,35.8594566986,-108.236838166,12.4946776411,0.001251461376,0.0,0.0,0.0,0.0036,0.0,0.0,0.0,0.00090601,2
105300000000,1052,105300000000,base_link,0,0,35.8594558764,-108.236838331,12.4697525694,0.001251461376,0.0,0.0,0.0,0.0036,0.0,0.0,0.0,0.00090601,2
105400000000,1053,105400000000,base_link,0,0,35.8594555339,-108.23683723,12.5007857901,0.001251461376,0.0,0.0,0.0,0.0036,0.0,0.0,0.0,0.00090601,2
105500000000,1054,105500000000,base_link,0,0,35.8594559949,-108.236838309,12.4889947424,0.001251461376,0.0,0.0,0.0,0.0036,0.0,0.0,0.0,0.00090601,2
105600000000,1055,105600000000,base_link,0,0,35.8594565438,-108.236838723,12.4312185033,0.001251461376,0.0,0.0,0.0,0.0036,0.0,0.0,0.0,0.00090601,2
105700000000,1056,105700000000,base_link,0,0,35.8594558116,-108.236838481,12.4525636111,0.001251461376,0.0,0.0,0.0,0.0036,0.0,0.0,0.0,0.00090601,2
105800000000,1057,105800000000,base_link,0,0,35.8594567844,-108.236838823,12.4464433814,0.001251461376,0.0,0.0,0.0,0.0036,0.0,0.0,0.0,0.00090601,2
105900000000,1058,105900000000,base_link,0,0,35.8594560936,-108.236838504,12.4774726868,0.001251461376,0.0,0.0,0.0,0.0036,0.0,0.0,0.0,0.00090601,2
106000000000,1059,106000000000,base_link,0,0,35.8594560317,-108.236837638,12.4703185407,0.001251461376,0.0,0.0,0.0,0.0036,0.0,0.0,0.0,0.00090601,2
106100000000,1060,106100000000,base_link,0,0,35.859456415,-108.236836564,12.4841733686,0.001251461376,0.0,0.0,0.0,0.0036,0.0,0.0,0.0,0.00090601,2
106200000000,1061,106200000000,base_link,0,0,35.8594569034,-108.23683681,12.4630166084,0.001251461376,0.0,0.0,0.0,0.0036,0.0,0.0,0.0,0.00090601,2
106300000000,1062,106300000000,base_link,0,0,35.8594563142,-108.236837261,12.4163952047,0.001251461376,0.0,0.0,0.0,0.0036,0.0,0.0,0.0,0.00090601,2
106400000000,1063,106400000000,base_link,0,0,35.8594566752,-108.236837616,12.5224744129,0.001251461376,0.0,0.0,0.0,0.0036,0.0,0.0,0.0,0.00090601,2
106500000000,1064,106500000000,base_link,0,0,35.8594566993,-108.236837239,12.4804452386,0.001251461376,0.0,0.0,0.0,0.0036,0.0,0.0,0.0,0.00090601,2
106600000000,1065,106600000000,base_link,0,0,35.8594566927,-108.236835934,12.4376788767,0.001251461376,0.0,0.0,0.0,0.0036,0.0,0.0,0.0,0.00090601,2
106700000000,1066,106700000000,base_link,0,0,35.8594570866,-108.236834533,12.4434631089,0.001251461376,0.0,0.0,0.0,0.0036,0.0,0.0,0.0,0.00090601,2
106800000000,1067,106800000000,base_link,0,0,35.8594579407,-108.236834341,12.43987639,0.001251461376,0.0,0.0,0.0,0.0036,0.0,0.0,0.0,0.00090601,2
106900000000,1068,106900000000,base_link,0,0,35.8594567027,-108.236834426,12.4219702318,0.001251461376,0.0,0.0,0.0,0.0036,0.0,0.0,0.0,0.00090601,2
107000000000,1069,107000000000,base_link,0,0,35.859457452,-108.236835147,12.4560827036,0.001251461376,0.0,0.0,0.0,0.0036,0.0,0.0,0.0,0.00090601,2
107100000000,1070,107100000000,base_link,0,0,35.8594577595,-108.236834617,12.4691713707,0.001251461376,0.0,0.0,0.0,0.0036,0.0,0.0,0.0,0.00090601,2
107200000000,1071,107200000000,base_link,0,0,35.8594563777,-108.236834451,12.45118009,0.001251461376,0.0,0.0,0.0,0.0036,0.0,0.0,0.0,0.00090601,2
107300000000,1072,107300000000,base_link,0,0,35.8594577322,-108.236833867,12.4751148871,0.001251461376,0.0,0.0,0.0,0.0036,0.0,0.0,0.0,0.00090601,2
107400000000,1073,107400000000,base_link,0,0,35.8594567798,-108.236833992,12.4227852776,0.001251461376,0.0,0.0,0.0,0.0036,0.0,0.0,0.0,0.00090601,2
107500000000,1074,107500000000,base_link,0,0,35.8594577163,-108.236834146,12.4395305875,0.001251461376,0.0,0.0,0.0,0.0036,0.0,0.0,0.0,0.00090601,2
107600000000,1075,107600000000,base_link,0,0,35.859457616,-108.236834285,12.4912491075,0.001251461376,0.0,0.0,0.0,0.0036,0.0,0.0,0.0,0.00090601,2
107700000000,1076,107700000000,base_link,0,0,35.8594577807,-108.236834976,12.4713406452,0.001251461376,0.0,0.0,0.0,0.0036,0.0,0.0,0.0,0.00090601,2
107800000000,1077,107800000000,base_link,0,0,35.8594572107,-108.236834009,12.4784418253,0.001251461376,0.0,0.0,0.0,0.0036,0.0,0.0,0.0,0.00090601,2
107900000000,1078,107900000000,base_link,0,0,35.8594574031,-108.236834408,12.44548182,0.001251461376,0.0,0.0,0.0,0.0036,0.0,0.0,0.0,0.00090601,2
108000000000,1079,108000000000,base_link,0,0,35.8594574513,-108.236833701,12.4294942765,0.001251461376,0.0,0.0,0.0,0.0036,0.0,0.0,0.0,0.00090601,2
108100000000,1080,108100000000,base_link,0,0,35.8594583865,-108.236834843,12.41412626,0.001251461376,0.0,0.0,0.0,0.0036,0.0,0.0,0.0,0.00090601,2
108200000000,1081,108200000000,base_link,0,0,35.8594571333,-108.23683442,12.4564783247,0.001251461376,0.0,0.0,0.0,0.0036,0.0,0.0,0.0,0.00090601,2
108300000000,1082,108300000000,base_link,0,0,35.8594576501,-108.236834809,12.4137264236,0.001251461376,0.0,0.0,0.0,0.0036,0.0,0.0,0.0,0.00090601,2
108400000000,1083,108400000000,base_link,0,0,35.8594571373,-108.236834483,12.4712750291,0.001251461376,0.0,0.0,0.0,0.0036,0.0,0.0,0.0,0.00090601,2
108500000000,1084,108500000000,base_link,0,0,35.8594567177,-108.236833796,12.4873629653,0.001251461376,0.0,0.0,0.0,0.0036,0.0,0.0,0.0,0.00090601,2
108600000000,1085,108600000000,base_link,0,0,35.8594570499,-108.236834357,12.4289020143,0.001251461376,0.0,0.0,0.0,0.0036,0.0,0.0,0.0,0.00090601,2
108700000000,1086,108700000000,base_link,0,0,35.8594572345,-108.236834333,12.4674803825,0.001251461376,0.0,0.0,0.0,0.0036,0.0,0.0,0.0,0.00090601,2
108800000000,1087,108800000000,base_link,0,0,35.8594572246,-108.236834177,12.4661948947,0.001251461376,0.0,0.0,0.0,0.0036,0.0,0.0,0.0,0.00090601,2
108900000000,1088,108900000000,base_link,0,0,35.8594572733,-108.236833529,12.4733040637,0.001251461376,0.0,0.0,0.0,0.0036,0.0,0.0,0.0,0.00090601,2
109000000000,1089,109000000000,base_link,0,0,35.8594576644,-108.236833958,12.4506723978,0.001251461376,0.0,0.0,0.0,0.0036,0.0,0.0,0.0,0.00090601,2
109100000000,1090,109100000000,base_link,0,0,35.8594572746,-108.236834089,12.4697023261,0.001251461376,0.0,0.0,0.0,0.0036,0.0,0.0,0.0,0.00090601,2
109200000000,1091,109200000000,base_link,0,0,35.8594567643,-108.236833783,12.4943769823,0.001251461376,0.0,0.0,0.0,0.0036,0.0,0.0,0.0,0.00090601,2
109300000000,1092,109300000000,base_link,0,0,35.8594573275,-108.236834451,12.439841131,0.001251461376,0.0,0.0,0.0,0.0036,0.0,0.0,0.0,0.00090601,2
109400000000,1093,109400000000,base_link,0,0,35.8594578384,-108.236834707,12.4205762864,0.001251461376,0.0,0.0,0.0,0.0036,0.0,0.0,0.0,0.00090601,2
109500000000,1094,109500000000,base_link,0,0,35.8594574506,-108.236834257,12.4336624568,0.001251461376,0.0,0.0,0.0,0.0036,0.0,0.0,0.0,0.00090601,2
109600000000,1095,109600000000,base_link,0,0,35.8594578364,-108.236834433,12.4725843138,0.001251461376,0.0,0.0,0.0,0.0036,0.0,0.0,0.0,0.00090601,2
109700000000,1096,109700000000,base_link,0,0,35.8594566497,-108.236834542,12.4705086306,0.001251461376,0.0,0.0,0.0,0.0036,0.0,0.0,0.0,0.00090601,2
109800000000,1097,109800000000,base_link,0,0,35.8594580189,-108.236834937,12.4217363686,0.001251461376,0.0,0.0,0.0,0.0036,0.0,0.0,0.0,0.00090601,2
109900000000,1098,109900000000,base_link,0,0,35.8594570655,-108.236834031,12.4306382385,0.001251461376,0.0,0.0,0.0,0.0036,0.0,0.0,0.0,0.00090601,2
110000000000,1099,110000000000,base_link,0,0,35.859458255,-108.236834282,12.4361036879,0.001251461376,0.0,0.0,0.0,0.0036,0.0,0.0,0.0,0.00090601,2
110100000000,1100,110100000000,base_link,0,0,35.8594579144,-108.236834083,12.4652814032,0.001251461376,0.0,0.0,0.0,0.0036,0.0,0.0,0.0,0.00090601,2
110200000000,1101,110200000000,base_link,0,0,35.8594579469,-108.236834641,12.4661683314,0.001251461376,0.0,0.0,0.0,0.0036,0.0,0.0,0.0,0.00090601,2
110300000000,1102,110300000000,base_link,0,0,35.8594572151,-108.236833876,12.4474424663,0.001251461376,0.0,0.0,0.0,0.0036,0.0,0.0,0.0,0.00090601,2
110400000000,1103,110400000000,base_link,0,0,35.8594571721,-108.236834345,12.4281234713,0.001251461376,0.0,0.0,0.0,0.0036,0.0,0.0,0.0,0.00090601,2
110500000000,1104,110500000000,base_link,0,0,35.8594574833,-108.236834257,12.4389838753,0.001251461376,0.0,0.0,0.0,0.0036,0.0,0.0,0.0,0.00090601,2
110600000000,1105,110600000000,base_link,0,0,35.8594564641,-108.23683441,12.4541621659,0.001251461376,0.0,0.0,0.0,0.0036,0.0,0.0,0.0,0.00090601,2
110700000000,1106,110700000000,base_link,0,0,35.8594572584,-108.236834381,12.4587582864,0.001251461376,0.0,0.0,0.0,0.0036,0.0,0.0,0.0,0.00090601,2
110800000000,1107,110800000000,base_link,0,0,35.8594573484,-108.236834937,12.4348669612,0.001251461376,0.0,0.0,0.0,0.0036,0.0,0.0,0.0,0.00090601,2
110900000000,1108,110900000000,base_link,0,0,35.8594575763,-108.236834168,12.4670863234,0.001251461376,0.0,0.0,0.0,0.0036,0.0,0.0,0.0,0.00090601,2
111000000000,1109,111000000000,base_link,0,0,35.8594566105,-108.23683386,12.4069559965,0.001251461376,0.0,0.0,0.0,0.0036,0.0,0.0,0.0,0.00090601,2
111100000000,1110,111100000000,base_link,0,0,35.8594567717,-108.236833683,12.4379507051,0.001251461376,0.0,0.0,0.0,0.0036,0.0,0.0,0.0,0.00090601,2
111200000000,1111,111200000000,base_link,0,0,35.859458262,-108.236835013,12.4564684843,0.001251461376,0.0,0.0,0.0,0.0036,0.0,0.0,0.0,0.00090601,2
111300000000,1112,111300000000,base_link,0,0,35.8594569748,-108.236834384,12.4415145098,0.001251461376,0.0,0.0,0.0,0.0036,0.0,0.0,0.0,0.00090601,2
111400000000,1113,111400000000,base_link,0,0,35.8594571879,-108.23683466,12.4677340645,0.001251461376,0.0,0.0,0.0,0.0036,0.0,0.0,0.0,0.00090601,2
111500000000,1114,111500000000,base_link,0,0,35.859457818,-108.236834739,12.4410799147,0.001251461376,0.0,0.0,0.0,0.0036,0.0,0.0,0.0,0.00090601,2
111600000000,1115,111600000000,base_link,0,0,35.8594576448,-108.236834986,12.4517736481,0.001251461376,0.0,0.0,0.0,0.0036,0.0,0.0,0.0,0.00090601,2
111700000000,1116,111700000000,base_link,0,0,35.8594565319,-108.236835414,12.4123275463,0.001251461376,0.0,0.0,0.0,0.0036,0.0,0.0,0.0,0.00090601,2
111800000000,1117,111800000000,base_link,0,0,35.8594573281,-108.236833555,12.4999905206,0.001251461376,0.0,0.0,0.0,0.0036,0.0,0.0,0.0,0.00090601,2
111900000000,1118,111900000000,base_link,0,0,35.8594579107,-108.236833437,12.4870693584,0.001251461376,0.0,0.0,0.0,0.0036,0.0,0.0,0.0,0.00090601,2
112000000000,1119,112000000000,base_link,0,0,35.8594579547,-108.236833014,12.4782029839,0.001251461376,0.0,0.0,0.0,0.0036,0.0,0.0,0.0,0.00090601,2
112100000000,1120,112100000000,base_link,0,0,35.8594583041,-108.236831975,12.5428401775,0.001251461376,0.0,0.0,0.0,0.0036,0.0,0.0,0.0,0.00090601,2
112200000000,1121,112200000000,base_link,0,0,35.8594573202,-108.236832319,12.4714044294,0.001251461376,0.0,0.0,0.0,0.0036,0.0,0.0,0.0,0.00090601,2
112300000000,1122,112300000000,base_link,0,0,35.8594583313,-108.236832945,12.4646087877,0.001251461376,0.0,0.0,0.0,0.0036,0.0,0.0,0.0,0.00090601,2
112400000000,1123,112400000000,base_link,0,0,35.8594575492,-108.236833145,12.4630440428,0.001251461376,0.0,0.0,0.0,0.0036,0.0,0.0,0.0,0.00090601,2
112500000000,1124,112500000000,base_link,0,0,35.8594589594,-108.236832196,12.4037848432,0.001251461376,0.0,0.0,0.0,0.0036,0.0,0.0,0.0,0.00090601,2
112600000000,1125,112600000000,base_link,0,0,35.8594584119,-108.236831333,12.4001075382,0.001251461376,0.0,0.0,0.0,0.0036,0.0,0.0,0.0,0.00090601,2
112700000000,1126,112700000000,base_link,0,0,35.8594592248,-108.23682989,12.4311755429,0.001251461376,0.0,0.0,0.0,0.0036,0.0,0.0,0.0,0.00090601,2
112800000000,1127,112800000000,base_link,0,0,35.8594597178,-108.236828918,12.4100771429,0.001251461376,0.0,0.0,0.0,0.0036,0.0,0.0,0.0,0.00090601,2
112900000000,1128,112900000000,base_link,0,0,35.8594603953,-108.236827621,12.4931937071,0.001251461376,0.0,0.0,0.0,0.0036,0.0,0.0,0.0,0.00090601,2
113000000000,1129,113000000000,base_link,0,0,35.8594599089,-108.236826346,12.4433885857,0.001251461376,0.0,0.0,0.0,0.0036,0.0,0.0,0.0,0.00090601,2
113100000000,1130,113100000000,base_link,0,0,35.8594611824,-108.236825492,12.4046613326,0.001251461376,0.0,0.0,0.0,0.0036,0.0,0.0,0.0,0.00090601,2
113200000000,1131,113200000000,base_link,0,0,35.8594600661,-108.236823447,12.4302021887,0.001251461376,0.0,0.0,0.0,0.0036,0.0,0.0,0.0,0.00090601,2
113300000000,1132,113300000000,base_link,0,0,35.8594620875,-108.236824176,12.4350693943,0.001251461376,0.0,0.0,0.0,0.0036,0.0,0.0,0.0,0.00090601,2
113400000000,1133,113400000000,base_link,0,0,35.8594614766,-108.236821854,12.4090515151,0.001251461376,0.0,0.0,0.0,0.0036,0.0,0.0,0.0,0.00090601,2
113500000000,1134,113500000000,base_link,0,0,35.8594633194,-108.236822091,12.4484015557,0.001251461376,0.0,0.0,0.0,0.0036,0.0,0.0,0.0,0.00090601,2
113600000000,1135,113600000000,base_link,0,0,35.8594631889,-108.236819836,12.4293767693,0.001251461376,0.0,0.0,0.0,0.0036,0.0,0.0,0.0,0.00090601,2
113700000000,1136,113700000000,base_link,0,0,35.8594639835,-108.236820176,12.3858378279,0.001251461376,0.0,0.0,0.0,0.0036,0.0,0.0,0.0,0.00090601,2
113800000000,1137,113800000000,base_link,0,0,35.859464237,-108.236819189,12.3918724353,0.001251461376,0.0,0.0,0.0,0.0036,0.0,0.0,0.0,0.00090601,2
113900000000,1138,113900000000,base_link,0,0,35.8594640812,-108.236817143,12.3478427142,0.001251461376,0.0,0.0,0.0,0.0036,0.0,0.0,0.0,0.00090601,2
114000000000,1139,114000000000,base_link,0,0,35.8594646039,-108.236815647,12.432453351,0.001251461376,0.0,0.0,0.0,0.0036,0.0,0.0,0.0,0.00090601,2
114100000000,1140,114100000000,base_link,0,0,35.8594656848,-108.236815139,12.3229836437,0.001251461376,0.0,0.0,0.0,0.0036,0.0,0.0,0.0,0.00090601,2
114200000000,1141,114200000000,base_link,0,0,35.8594653423,-108.236813938,12.3453571686,0.001251461376,0.0,0.0,0.0,0.0036,0.0,0.0,0.0,0.00090601,2
114300000000,1142,114300000000,base_link,0,0,35.8594661843,-108.236813642,12.3803635178,0.001251461376,0.0,0.0,0.0,0.0036,0.0,0.0,0.0,0.00090601,2
114400000000,1143,114400000000,base_link,0,0,35.8594664738,-108.23681342,12.4018335338,0.001251461376,0.0,0.0,0.0,0.0036,0.0,0.0,0.0,0.00090601,2
114500000000,1144,114500000000,base_link,0,0,35.8594662129,-108.236813504,12.3565573214,0.001251461376,0.0,0.0,0.0,0.0036,0.0,0.0,0.0,0.00090601,2
114600000000,1145,114600000000,base_link,0,0,35.8594658065,-108.236812763,12.3508002227,0.001251461376,0.0,0.0,0.0,0.0036,0.0,0.0,0.0,0.00090601,2
114700000000,1146,114700000000,base_link,0,0,35.8594665265,-108.236812659,12.2852480731,0.001251461376,0.0,0.0,0.0,0.0036,0.0,0.0,0.0,0.00090601,2
114800000000,1147,114800000000,base_link,0,0,35.8594654123,-108.236812043,12.3593859931,0.001251461376,0.0,0.0,0.0,0.0036,0.0,0.0,0.0,0.00090601,2
114900000000,1148,114900000000,base_link,0,0,35.859466015,-108.236813072,12.3725386501,0.001251461376,0.0,0.0,0.0,0.0036,0.0,0.0,0.0,0.00090601,2
115000000000,1149,115000000000,base_link,0,0,35.8594656997,-108.236813887,12.3983558186,0.001251461376,0.0,0.0,0.0,0.0036,0.0,0.0,0.0,0.00090601,2
115100000000,1150,115100000000,base_link,0,0,35.8594663744,-108.236811417,12.3433613991,0.001251461376,0.0,0.0,0.0,0.0036,0.0,0.0,0.0,0.00090601,2
115200000000,1151,115200000000,base_link,0,0,35.8594662789,-108.236811391,12.3443877419,0.001251461376,0.0,0.0,0.0,0.0036,0.0,0.0,0.0,0.00090601,2
115300000000,1152,115300000000,base_link,0,0,35.8594655326,-108.236810458,12.3862269164,0.001251461376,0.0,0.0,0.0,0.0036,0.0,0.0,0.0,0.00090601,2
115400000000,1153,115400000000,base_link,0,0,35.8594662789,-108.236809258,12.3980185938,0.001251461376,0.0,0.0,0.0,0.0036,0.0,0.0,0.0,0.00090601,2
115500000000,1154,115500000000,base_link,0,0,35.8594645273,-108.236806619,12.3656205699,0.001251461376,0.0,0.0,0.0,0.0036,0.0,0.0,0.0,0.00090601,2
115600000000,1155,115600000000,base_link,0,0,35.8594654879,-108.236807769,12.3386579907,0.001251461376,0.0,0.0,0.0,0.0036,0.0,0.0,0.0,0.00090601,2
115700000000,1156,115700000000,base_link,0,0,35.8594655958,-108.236807831,12.3907262398,0.001251461376,0.0,0.0,0.0,0.0036,0.0,0.0,0.0,0.00090601,2
115800000000,1157,115800000000,base_link,0,0,35.8594658418,-108.236808007,12.3178145414,0.001251461376,0.0,0.0,0.0,0.0036,0.0,0.0,0.0,0.00090601,2
115900000000,1158,115900000000,base_link,0,0,35.8594652024,-108.236807764,12.3580988305,0.001251461376,0.0,0.0,0.0,0.0036,0.0,0.0,0.0,0.00090601,2
116000000000,1159,116000000000,base_link,0,0,35.8594648793,-108.236807709,12.3393038703,0.001251461376,0.0,0.0,0.0,0.0036,0.0,0.0,0.0,0.00090601,2
116100000000,1160,116100000000,base_link,0,0,35.8594654016,-108.236807214,12.3233863569,0.001251461376,0.0,0.0,0.0,0.0036,0.0,0.0,0.0,0.00090601,2
116200000000,1161,116200000000,base_link,0,0,35.8594657493,-108.236808154,12.4028138126,0.001251461376,0.0,0.0,0.0,0.0036,0.0,0.0,0.0,0.00090601,2
116300000000,1162,116300000000,base_link,0,0,35.8594660968,-108.236806922,12.3913661174,0.001251461376,0.0,0.0,0.0,0.0036,0.0,0.0,0.0,0.00090601,2
116400000000,1163,116400000000,base_link,0,0,35.8594650329,-108.236807299,12.3403675304,0.001251461376,0.0,0.0,0.0,0.0036,0.0,0.0,0.0,0.00090601,2
116500000000,1164,116500000000,base_link,0,0,35.859464476,-108.236807037,12.2874504031,0.001251461376,0.0,0.0,0.0,0.0036,0.0,0.0,0.0,0.00090601,2
116600000000,1165,116600000000,base_link,0,0,35.8594648105,-108.236806267,12.3697587199,0.001251461376,0.0,0.0,0.0,0.0036,0.0,0.0,0.0,0.00090601,2
116700000000,1166,116700000000,base_link,0,0,35.8594634401,-108.236805762,12.3732151434,0.001251461376,0.0,0.0,0.0,0.0036,0.0,0.0,0.0,0.00090601,2
116800000000,1167,116800000000,base_link,0,0,35.8594636027,-108.236806025,12.3781607324,0.001251461376,0.0,0.0,0.0,0.0036,0.0,0.0,0.0,0.00090601,2
116900000000,1168,116900000000,base_link,0,0,35.8594641745,-108.236806063,12.3726714626,0.001251461376,0.0,0.0,0.0,0.0036,0.0,0.0,0.0,0.00090601,2
117000000000,1169,117000000000,base_link,0,0,35.8594632173,-108.23680643,12.3416085512,0.001251461376,0.0,0.0,0.0,0.0036,0.0,0.0,0.0,0.00090601,2
117100000000,1170,117100000000,base_link,0,0,35.8594641151,-108.236805342,12.3434668947,0.001251461376,0.0,0.0,0.0,0.0036,0.0,0.0,0.0,0.00090601,2
117200000000,1171,117200000000,base_link,0,0,35.8594634703,-108.236805266,12.3759939628,0.001251461376,0.0,0.0,0.0,0.0036,0.0,0.0,0.0,0.00090601,2
117300000000,1172,117300000000,base_link,0,0,35.8594628623,-108.236805639,12.3501148383,0.001251461376,0.0,0.0,0.0,0.0036,0.0,0.0,0.0,0.00090601,2
117400000000,1173,117400000000,base_link,0,0,35.8594632685,-108.236806004,12.3354593919,0.001251461376,0.0,0.0,0.0,0.0036,0.0,0.0,0.0,0.00090601,2
117500000000,1174,117500000000,base_link,0,0,35.8594644338,-108.236805988,12.3685961845,0.001251461376,0.0,0.0,0.0,0.0036,0.0,0.0,0.0,0.00090601,2
117600000000,1175,117600000000,base_link,0,0,35.8594631461,-108.236805766,12.3458231262,0.001251461376,0.0,0.0,0.0,0.0036,0.0,0.0,0.0,0.00090601,2
117700000000,1176,117700000000,base_link,0,0,35.859463759,-108.236805844,12.3613023227,0.001251461376,0.0,0.0,0.0,0.0036,0.0,0.0,0.0,0.00090601,2
117800000000,1177,117800000000,base_link,0,0,35.8594639094,-108.236805618,12.3655147696,0.001251461376,0.0,0.0,0.0,0.0036,0.0,0.0,0.0,0.00090601,2
117900000000,1178,117900000000,base_link,0,0,35.8594629536,-108.236805,12.3658389649,0.001251461376,0.0,0.0,0.0,0.0036,0.0,0.0,0.0,0.00090601,2
118000000000,1179,118000000000,base_link,0,0,35.8594634694,-108.23680615,12.363352745,0.001251461376,0.0,0.0,0.0,0.0036,0.0,0.0,0.0,0.00090601,2
118100000000,1180,118100000000,base_link,0,0,35.8594639423,-108.236806101,12.3688528558,0.001251461376,0.0,0.0,0.0,0.0036,0.0,0.0,0.0,0.00090601,2
118200000000,1181,118200000000,base_link,0,0,35.8594643723,-108.236806039,12.3307270497,0.001251461376,0.0,0.0,0.0,0.0036,0.0,0.0,0.0,0.00090601,2
118300000000,1182,118300000000,base_link,0,0,35.859463388,-108.236806041,12.3603715055,0.001251461376,0.0,0.0,0.0,0.0036,0.0,0.0,0.0,0.00090601,2
118400000000,1183,118400000000,base_link,0,0,35.8594644595,-108.236806351,12.3861558563,0.001251461376,0.0,0.0,0.0,0.0036,0.0,0.0,0.0,0.00090601,2
118500000000,1184,118500000000,base_link,0,0,35.8594628934,-108.236805529,12.3200072166,0.001251461376,0.0,0.0,0.0,0.0036,0.0,0.0,0.0,0.00090601,2
118600000000,1185,118600000000,base_link,0,0,35.8594635053,-108.236805843,12.3510679221,0.001251461376,0.0,0.0,0.0,0.0036,0.0,0.0,0.0,0.00090601,2
118700000000,1186,118700000000,base_link,0,0,35.8594633528,-108.236806542,12.3275637607,0.001251461376,0.0,0.0,0.0,0.0036,0.0,0.0,0.0,0.00090601,2
118800000000,1187,118800000000,base_link,0,0,35.8594645668,-108.236805678,12.344076844,0.001251461376,0.0,0.0,0.0,0.0036,0.0,0.0,0.0,0.00090601,2
118900000000,1188,118900000000,base_link,0,0,35.8594630913,-108.236805035,12.3002688704,0.001251461376,0.0,0.0,0.0,0.0036,0.0,0.0,0.0,0.00090601,2
119000000000,1189,119000000000,base_link,0,0,35.8594629961,-108.236806038,12.3021654752,0.001251461376,0.0,0.0,0.0,0.0036,0.0,0.0,0.0,0.00090601,2
119100000000,1190,119100000000,base_link,0,0,35.8594643939,-108.236806,12.3872721612,0.001251461376,0.0,0.0,0.0,0.0036,0.0,0.0,0.0,0.00090601,2
119200000000,1191,119200000000,base_link,0,0,35.8594631306,-108.236805234,12.3862138698,0.001251461376,0.0,0.0,0.0,0.0036,0.0,0.0,0.0,0.00090601,2
119300000000,1192,119300000000,base_link,0,0,35.8594628441,-108.236806454,12.3783947835,0.001251461376,0.0,0.0,0.0,0.0036,0.0,0.0,0.0,0.00090601,2
119400000000,1193,119400000000,base_link,0,0,35.8594643295,-108.236805756,12.3521695374,0.001251461376,0.0,0.0,0.0,0.0036,0.0,0.0,0.0,0.00090601,2
119500000000,1194,119500000000,base_link,0,0,35.859463582,-108.236805558,12.4023803109,0.001251461376,0.0,0.0,0.0,0.0036,0.0,0.0,0.0,0.00090601,2
119600000000,1195,119600000000,base_link,0,0,35.8594634968,-108.236806667,12.3774291937,0.001251461376,0.0,0.0,0.0,0.0036,0.0,0.0,0.0,0.00090601,2
119700000000,1196,119700000000,base_link,0,0,35.8594638804,-108.236805028,12.3854939453,0.001251461376,0.0,0.0,0.0,0.0036,0.0,0.0,0.0,0.00090601,2
119800000000,1197,119800000000,base_link,0,0,35.859462737,-108.236805003,12.3621363718,0.001251461376,0.0,0.0,0.0,0.0036,0.0,0.0,0.0,0.00090601,2
119900000000,1198,119900000000,base_link,0,0,35.8594629856,-108.236803962,12.3618370529,0.001251461376,0.0,0.0,0.0,0.0036,0.0,0.0,0.0,0.00090601,2
120000000000,1199,120000000000,base_link,0,0,35.8594624308,-108.23680491,12.3693758693,0.001251461376,0.0,0.0,0.0,0.0036,0.0,0.0,0.0,0.00090601,2
120100000000,1200,120100000000,base_link,0,0,35.859462629,-108.236804303,12.3433569887,0.001251461376,0.0,0.0,0.0,0.0036,0.0,0.0,0.0,0.00090601,2
120200000000,1201,120200000000,base_link,0,0,35.8594626446,-108.23680464,12.3620199839,0.001251461376,0.0,0.0,0.0,0.0036,0.0,0.0,0.0,0.00090601,2
120300000000,1202,120300000000,base_link,0,0,35.8594618793,-108.236805225,12.3504620491,0.001251461376,0.0,0.0,0.0,0.0036,0.0,0.0,0.0,0.00090601,2
120400000000,1203,120400000000,base_link,0,0,35.859462152,-108.236804469,12.3531228853,0.001251461376,0.0,0.0,0.0,0.0036,0.0,0.0,0.0,0.00090601,2
120500000000,1204,120500000000,base_link,0,0,35.8594601311,-108.236803365,12.3444571954,0.001251461376,0.0,0.0,0.0,0.0036,0.0,0.0,0.0,0.00090601,2
120600000000,1205,120600000000,base_link,0,0,35.8594603152,-108.236803136,12.3705957012,0.001251461376,0.0,0.0,0.0,0.0036,0.0,0.0,0.0,0.00090601,2
120700000000,1206,120700000000,base_link,0,0,35.859458565,-108.236802057,12.3584460524,0.001251461376,0.0,0.0,0.0,0.0036,0.0,0.0,0.0,0.00090601,2
120800000000,1207,120800000000,base_link,0,0,35.8594588895,-108.236801896,12.4084705688,0.001251461376,0.0,0.0,0.0,0.0036,0.0,0.0,0.0,0.00090601,2
120900000000,1208,120900000000,base_link,0,0,35.8594579528,-108.236802044,12.3608637993,0.001251461376,0.0,0.0,0.0,0.0036,0.0,0.0,0.0,0.00090601,2
121000000000,1209,121000000000,base_link,0,0,35.8594558781,-108.236800657,12.3205388369,0.001251461376,0.0,0.0,0.0,0.0036,0.0,0.0,0.0,0.00090601,2
121100000000,1210,121100000000,base_link,0,0,35.8594562846,-108.23680023,12.3236710648,0.001251461376,0.0,0.0,0.0,0.0036,0.0,0.0,0.0,0.00090601,2
121200000000,1211,121200000000,base_link,0,0,35.8594537464,-108.236798585,12.3173216451,0.001251461376,0.0,0.0,0.0,0.0036,0.0,0.0,0.0,0.00090601,2
121300000000,1212,121300000000,base_link,0,0,35.8594537834,-108.236798818,12.3140086299,0.001251461376,0.0,0.0,0.0,0.0036,0.0,0.0,0.0,0.00090601,2
121400000000,1213,121400000000,base_link,0,0,35.859453847,-108.236798012,12.3489125333,0.001251461376,0.0,0.0,0.0,0.0036,0.0,0.0,0.0,0.00090601,2
121500000000,1214,121500000000,base_link,0,0,35.8594533489,-108.23679761,12.3532381011,0.001251461376,0.0,0.0,0.0,0.0036,0.0,0.0,0.0,0.00090601,2
121600000000,1215,121600000000,base_link,0,0,35.859451728,-108.236798036,12.3590977385,0.001251461376,0.0,0.0,0.0,0.0036,0.0,0.0,0.0,0.00090601,2
121700000000,1216,121700000000,base_link,0,0,35.8594503636,-108.236796964,12.301193013,0.001251461376,0.0,0.0,0.0,0.0036,0.0,0.0,0.0,0.00090601,2
121800000000,1217,121800000000,base_link,0,0,35.8594507498,-108.236795771,12.3363282258,0.001251461376,0.0,0.0,0.0,0.0036,0.0,0.0,0.0,0.00090601,2
121900000000,1218,121900000000,base_link,0,0,35.8594500871,-108.236794915,12.382895081,0.001251461376,0.0,0.0,0.0,0.0036,0.0,0.0,0.0,0.00090601,2
122000000000,1219,122000000000,base_link,0,0,35.8594485225,-108.236794685,12.3440604229,0.001251461376,0.0,0.0,0.0,0.0036,0.0,0.0,0.0,0.00090601,2
122100000000,1220,122100000000,base_link,0,0,35.8594477355,-108.236793712,12.3249911203,0.001251461376,0.0,0.0,0.0,0.0036,0.0,0.0,0.0,0.00090601,2
122200000000,1221,122200000000,base_link,0,0,35.8594470824,-108.236792598,12.3096748018,0.001251461376,0.0,0.0,0.0,0.0036,0.0,0.0,0.0,0.00090601,2
122300000000,1222,122300000000,base_link,0,0,35.8594455806,-108.236792528,12.3119913587,0.001251461376,0.0,0.0,0.0,0.0036,0.0,0.0,0.0,0.00090601,2
122400000000,1223,122400000000,base_link,0,0,35.8594454479,-108.236792302,12.245348608,0.001251461376,0.0,0.0,0.0,0.0036,0.0,0.0,0.0,0.00090601,2
122500000000,1224,122500000000,base_link,0,0,35.8594451228,-108.236791718,12.3286097966,0.001251461376,0.0,0.0,0.0,0.0036,0.0,0.0,0.0,0.00090601,2
122600000000,1225,122600000000,base_link,0,0,35.8594430833,-108.236790855,12.3329695291,0.001251461376,0.0,0.0,0.0,0.0036,0.0,0.0,0.0,0.00090601,2
122700000000,1226,122700000000,base_link,0,0,35.859442276,-108.236789381,12.3713815081,0.001251461376,0.0,0.0,0.0,0.0036,0.0,0.0,0.0,0.00090601,2
122800000000,1227,122800000000,base_link,0,0,35.859442514,-108.236789815,12.3614798164,0.001251461376,0.0,0.0,0.0,0.0036,0.0,0.0,0.0,0.00090601,2
122900000000,1228,122900000000,base_link,0,0,35.8594412386,-108.236788483,12.3744183932,0.001251461376,0.0,0.0,0.0,0.0036,0.0,0.0,0.0,0.00090601,2
123000000000,1229,123000000000,base_link,0,0,35.8594410098,-108.23678785,12.2936172931,0.001251461376,0.0,0.0,0.0,0.0036,0.0,0.0,0.0,0.00090601,2
123100000000,1230,123100000000,base_link,0,0,35.8594407329,-108.236787541,12.3075701878,0.001251461376,0.0,0.0,0.0,0.0036,0.0,0.0,0.0,0.00090601,2
